{
  "name": "中華人民共和國",
  "center": {
    "longitude": 116.3683244,
    "latitude": 39.915085
  },
  "level": "country",
  "districts": [
    {
      "name": "澳門特別行政區",
      "center": {
        "longitude": 113.543028,
        "latitude": 22.186835
      },
      "level": "province",
      "districts": [
        {
          "name": "花王堂區",
          "center": {
            "longitude": 113.548961,
            "latitude": 22.199207
          },
          "level": "district",
          "districts": []
        },
        {
          "name": "望德堂區",
          "center": {
            "longitude": 113.550183,
            "latitude": 22.193721
          },
          "level": "district",
          "districts": []
        },
        {
          "name": "大堂區",
          "center": {
            "longitude": 113.553647,
            "latitude": 22.188539
          },
          "level": "district",
          "districts": []
        },
        {
          "name": "風順堂區",
          "center": {
            "longitude": 113.541928,
            "latitude": 22.187368
          },
          "level": "district",
          "districts": []
        },
        {
          "name": "花地瑪堂區",
          "center": {
            "longitude": 113.552896,
            "latitude": 22.20787
          },
          "level": "district",
          "districts": []
        },
        {
          "name": "嘉模堂區",
          "center": {
            "longitude": 113.558705,
            "latitude": 22.15376
          },
          "level": "district",
          "districts": []
        },
        {
          "name": "聖方濟各堂區",
          "center": {
            "longitude": 113.559954,
            "latitude": 22.123486
          },
          "level": "district",
          "districts": []
        },
        {
          "name": "路氹填海區",
          "center": {
            "longitude": 113.569599,
            "latitude": 22.13663
          },
          "level": "district",
          "districts": []
        }
      ]
    },
    {
      "name": "北京市",
      "center": {
        "longitude": 116.407394,
        "latitude": 39.904211
      },
      "level": "province",
      "districts": [
        {
          "name": "北京城區",
          "center": {
            "longitude": 116.407394,
            "latitude": 39.904211
          },
          "level": "city",
          "districts": [
            {
              "name": "昌平區",
              "center": {
                "longitude": 116.231254,
                "latitude": 40.220804
              },
              "level": "district",
              "districts": []
            },
            {
              "name": "朝陽區",
              "center": {
                "longitude": 116.443205,
                "latitude": 39.921506
              },
              "level": "district",
              "districts": []
            },
            {
              "name": "大興區",
              "center": {
                "longitude": 116.341483,
                "latitude": 39.726917
              },
              "level": "district",
              "districts": []
            },
            {
              "name": "東城區",
              "center": {
                "longitude": 116.41649,
                "latitude": 39.928341
              },
              "level": "district",
              "districts": []
            },
            {
              "name": "房山區",
              "center": {
                "longitude": 116.143486,
                "latitude": 39.748823
              },
              "level": "district",
              "districts": []
            },
            {
              "name": "豐台區",
              "center": {
                "longitude": 116.287039,
                "latitude": 39.858421
              },
              "level": "district",
              "districts": []
            },
            {
              "name": "海澱區",
              "center": {
                "longitude": 116.298262,
                "latitude": 39.95993
              },
              "level": "district",
              "districts": []
            },
            {
              "name": "懷柔區",
              "center": {
                "longitude": 116.631931,
                "latitude": 40.316053
              },
              "level": "district",
              "districts": []
            },
            {
              "name": "門頭溝區",
              "center": {
                "longitude": 116.101719,
                "latitude": 39.940338
              },
              "level": "district",
              "districts": []
            },
            {
              "name": "密雲區",
              "center": {
                "longitude": 116.843047,
                "latitude": 40.376894
              },
              "level": "district",
              "districts": []
            },
            {
              "name": "平谷區",
              "center": {
                "longitude": 117.121351,
                "latitude": 40.140595
              },
              "level": "district",
              "districts": []
            },
            {
              "name": "石景山區",
              "center": {
                "longitude": 116.222933,
                "latitude": 39.906611
              },
              "level": "district",
              "districts": []
            },
            {
              "name": "順義區",
              "center": {
                "longitude": 116.654642,
                "latitude": 40.130211
              },
              "level": "district",
              "districts": []
            },
            {
              "name": "通州區",
              "center": {
                "longitude": 116.656434,
                "latitude": 39.909946
              },
              "level": "district",
              "districts": []
            },
            {
              "name": "西城區",
              "center": {
                "longitude": 116.365873,
                "latitude": 39.912235
              },
              "level": "district",
              "districts": []
            },
            {
              "name": "延慶區",
              "center": {
                "longitude": 115.974981,
                "latitude": 40.456591
              },
              "level": "district",
              "districts": []
            }
          ]
        }
      ]
    },
    {
      "name": "重慶市",
      "center": {
        "longitude": 106.551643,
        "latitude": 29.562849
      },
      "level": "province",
      "districts": [
        {
          "name": "重慶城區",
          "center": {
            "longitude": 106.551643,
            "latitude": 29.562849
          },
          "level": "city",
          "districts": [
            {
              "name": "巴南區",
              "center": {
                "longitude": 106.540256,
                "latitude": 29.402408
              },
              "level": "district",
              "districts": []
            },
            {
              "name": "北碚區",
              "center": {
                "longitude": 106.395612,
                "latitude": 29.805107
              },
              "level": "district",
              "districts": []
            },
            {
              "name": "璧山區",
              "center": {
                "longitude": 106.227305,
                "latitude": 29.592024
              },
              "level": "district",
              "districts": []
            },
            {
              "name": "大渡口區",
              "center": {
                "longitude": 106.482346,
                "latitude": 29.484527
              },
              "level": "district",
              "districts": []
            },
            {
              "name": "大足區",
              "center": {
                "longitude": 105.721733,
                "latitude": 29.707032
              },
              "level": "district",
              "districts": []
            },
            {
              "name": "涪陵區",
              "center": {
                "longitude": 107.38977,
                "latitude": 29.703022
              },
              "level": "district",
              "districts": []
            },
            {
              "name": "合川區",
              "center": {
                "longitude": 106.27613,
                "latitude": 29.972084
              },
              "level": "district",
              "districts": []
            },
            {
              "name": "江北區",
              "center": {
                "longitude": 106.574271,
                "latitude": 29.606703
              },
              "level": "district",
              "districts": []
            },
            {
              "name": "江津區",
              "center": {
                "longitude": 106.259281,
                "latitude": 29.290069
              },
              "level": "district",
              "districts": []
            },
            {
              "name": "九龍坡區",
              "center": {
                "longitude": 106.510676,
                "latitude": 29.502272
              },
              "level": "district",
              "districts": []
            },
            {
              "name": "開州區",
              "center": {
                "longitude": 108.393135,
                "latitude": 31.160711
              },
              "level": "district",
              "districts": []
            },
            {
              "name": "南岸區",
              "center": {
                "longitude": 106.644447,
                "latitude": 29.50126
              },
              "level": "district",
              "districts": []
            },
            {
              "name": "南川區",
              "center": {
                "longitude": 107.099266,
                "latitude": 29.15789
              },
              "level": "district",
              "districts": []
            },
            {
              "name": "綦江區",
              "center": {
                "longitude": 106.651361,
                "latitude": 29.028066
              },
              "level": "district",
              "districts": []
            },
            {
              "name": "黔江區",
              "center": {
                "longitude": 108.770677,
                "latitude": 29.533609
              },
              "level": "district",
              "districts": []
            },
            {
              "name": "榮昌區",
              "center": {
                "longitude": 105.594623,
                "latitude": 29.405002
              },
              "level": "district",
              "districts": []
            },
            {
              "name": "沙坪壩區",
              "center": {
                "longitude": 106.456878,
                "latitude": 29.541144
              },
              "level": "district",
              "districts": []
            },
            {
              "name": "銅梁區",
              "center": {
                "longitude": 106.056404,
                "latitude": 29.844811
              },
              "level": "district",
              "districts": []
            },
            {
              "name": "潼南區",
              "center": {
                "longitude": 105.840431,
                "latitude": 30.190992
              },
              "level": "district",
              "districts": []
            },
            {
              "name": "萬州區",
              "center": {
                "longitude": 108.408661,
                "latitude": 30.807667
              },
              "level": "district",
              "districts": []
            },
            {
              "name": "永川區",
              "center": {
                "longitude": 105.927001,
                "latitude": 29.356311
              },
              "level": "district",
              "districts": []
            },
            {
              "name": "渝北區",
              "center": {
                "longitude": 106.631187,
                "latitude": 29.718142
              },
              "level": "district",
              "districts": []
            },
            {
              "name": "渝中區",
              "center": {
                "longitude": 106.568896,
                "latitude": 29.552736
              },
              "level": "district",
              "districts": []
            },
            {
              "name": "長壽區",
              "center": {
                "longitude": 107.080734,
                "latitude": 29.857912
              },
              "level": "district",
              "districts": []
            }
          ]
        },
        {
          "name": "重慶郊縣",
          "center": {
            "longitude": 108.165537,
            "latitude": 29.293902
          },
          "level": "city",
          "districts": [
            {
              "name": "城口縣",
              "center": {
                "longitude": 108.664214,
                "latitude": 31.947633
              },
              "level": "district",
              "districts": []
            },
            {
              "name": "墊江縣",
              "center": {
                "longitude": 107.33339,
                "latitude": 30.327716
              },
              "level": "district",
              "districts": []
            },
            {
              "name": "豐都縣",
              "center": {
                "longitude": 107.730894,
                "latitude": 29.8635
              },
              "level": "district",
              "districts": []
            },
            {
              "name": "奉節縣",
              "center": {
                "longitude": 109.400403,
                "latitude": 31.018363
              },
              "level": "district",
              "districts": []
            },
            {
              "name": "梁平區",
              "center": {
                "longitude": 107.769568,
                "latitude": 30.654233
              },
              "level": "district",
              "districts": []
            },
            {
              "name": "彭水苗族土家族自治縣",
              "center": {
                "longitude": 108.165537,
                "latitude": 29.293902
              },
              "level": "district",
              "districts": []
            },
            {
              "name": "石柱土家族自治縣",
              "center": {
                "longitude": 108.114069,
                "latitude": 29.999285
              },
              "level": "district",
              "districts": []
            },
            {
              "name": "巫山縣",
              "center": {
                "longitude": 109.879153,
                "latitude": 31.074834
              },
              "level": "district",
              "districts": []
            },
            {
              "name": "巫溪縣",
              "center": {
                "longitude": 109.570062,
                "latitude": 31.398604
              },
              "level": "district",
              "districts": []
            },
            {
              "name": "武隆區",
              "center": {
                "longitude": 107.760025,
                "latitude": 29.325601
              },
              "level": "district",
              "districts": []
            },
            {
              "name": "秀山土家族苗族自治縣",
              "center": {
                "longitude": 109.007094,
                "latitude": 28.447997
              },
              "level": "district",
              "districts": []
            },
            {
              "name": "酉陽土家族苗族自治縣",
              "center": {
                "longitude": 108.767747,
                "latitude": 28.841244
              },
              "level": "district",
              "districts": []
            },
            {
              "name": "雲陽縣",
              "center": {
                "longitude": 108.697324,
                "latitude": 30.930612
              },
              "level": "district",
              "districts": []
            },
            {
              "name": "忠縣",
              "center": {
                "longitude": 108.039002,
                "latitude": 30.299559
              },
              "level": "district",
              "districts": []
            }
          ]
        }
      ]
    },
    {
      "name": "福建省",
      "center": {
        "longitude": 119.295143,
        "latitude": 26.100779
      },
      "level": "province",
      "districts": [
        {
          "name": "福州市",
          "center": {
            "longitude": 119.296389,
            "latitude": 26.074268
          },
          "level": "city",
          "districts": [
            {
              "name": "倉山區",
              "center": {
                "longitude": 119.273545,
                "latitude": 26.046743
              },
              "level": "district",
              "districts": []
            },
            {
              "name": "福清市",
              "center": {
                "longitude": 119.384201,
                "latitude": 25.72071
              },
              "level": "district",
              "districts": []
            },
            {
              "name": "鼓樓區",
              "center": {
                "longitude": 119.303917,
                "latitude": 26.081983
              },
              "level": "district",
              "districts": []
            },
            {
              "name": "晉安區",
              "center": {
                "longitude": 119.328521,
                "latitude": 26.082107
              },
              "level": "district",
              "districts": []
            },
            {
              "name": "連江縣",
              "center": {
                "longitude": 119.539704,
                "latitude": 26.197364
              },
              "level": "district",
              "districts": []
            },
            {
              "name": "羅源縣",
              "center": {
                "longitude": 119.549776,
                "latitude": 26.489558
              },
              "level": "district",
              "districts": []
            },
            {
              "name": "馬尾區",
              "center": {
                "longitude": 119.455588,
                "latitude": 25.9895
              },
              "level": "district",
              "districts": []
            },
            {
              "name": "閩侯縣",
              "center": {
                "longitude": 119.131724,
                "latitude": 26.150047
              },
              "level": "district",
              "districts": []
            },
            {
              "name": "閩清縣",
              "center": {
                "longitude": 118.863361,
                "latitude": 26.221197
              },
              "level": "district",
              "districts": []
            },
            {
              "name": "平潭縣",
              "center": {
                "longitude": 119.790168,
                "latitude": 25.49872
              },
              "level": "district",
              "districts": []
            },
            {
              "name": "台江區",
              "center": {
                "longitude": 119.314041,
                "latitude": 26.052843
              },
              "level": "district",
              "districts": []
            },
            {
              "name": "永泰縣",
              "center": {
                "longitude": 118.932592,
                "latitude": 25.866694
              },
              "level": "district",
              "districts": []
            },
            {
              "name": "長樂區",
              "center": {
                "longitude": 119.523266,
                "latitude": 25.962888
              },
              "level": "district",
              "districts": []
            }
          ]
        },
        {
          "name": "龍岩市",
          "center": {
            "longitude": 117.017295,
            "latitude": 25.075119
          },
          "level": "city",
          "districts": [
            {
              "name": "連城縣",
              "center": {
                "longitude": 116.754472,
                "latitude": 25.710538
              },
              "level": "district",
              "districts": []
            },
            {
              "name": "上杭縣",
              "center": {
                "longitude": 116.420098,
                "latitude": 25.049518
              },
              "level": "district",
              "districts": []
            },
            {
              "name": "武平縣",
              "center": {
                "longitude": 116.100414,
                "latitude": 25.095386
              },
              "level": "district",
              "districts": []
            },
            {
              "name": "新羅區",
              "center": {
                "longitude": 117.037155,
                "latitude": 25.098312
              },
              "level": "district",
              "districts": []
            },
            {
              "name": "永定區",
              "center": {
                "longitude": 116.732091,
                "latitude": 24.723961
              },
              "level": "district",
              "districts": []
            },
            {
              "name": "漳平市",
              "center": {
                "longitude": 117.419998,
                "latitude": 25.290184
              },
              "level": "district",
              "districts": []
            },
            {
              "name": "長汀縣",
              "center": {
                "longitude": 116.357581,
                "latitude": 25.833531
              },
              "level": "district",
              "districts": []
            }
          ]
        },
        {
          "name": "南平市",
          "center": {
            "longitude": 118.17771,
            "latitude": 26.641774
          },
          "level": "city",
          "districts": [
            {
              "name": "光澤縣",
              "center": {
                "longitude": 117.334106,
                "latitude": 27.540987
              },
              "level": "district",
              "districts": []
            },
            {
              "name": "建甌市",
              "center": {
                "longitude": 118.304966,
                "latitude": 27.022774
              },
              "level": "district",
              "districts": []
            },
            {
              "name": "建陽區",
              "center": {
                "longitude": 118.120464,
                "latitude": 27.331876
              },
              "level": "district",
              "districts": []
            },
            {
              "name": "浦城縣",
              "center": {
                "longitude": 118.541256,
                "latitude": 27.917263
              },
              "level": "district",
              "districts": []
            },
            {
              "name": "邵武市",
              "center": {
                "longitude": 117.492533,
                "latitude": 27.340326
              },
              "level": "district",
              "districts": []
            },
            {
              "name": "順昌縣",
              "center": {
                "longitude": 117.810357,
                "latitude": 26.793288
              },
              "level": "district",
              "districts": []
            },
            {
              "name": "松溪縣",
              "center": {
                "longitude": 118.785468,
                "latitude": 27.526232
              },
              "level": "district",
              "districts": []
            },
            {
              "name": "武夷山市",
              "center": {
                "longitude": 118.035309,
                "latitude": 27.756647
              },
              "level": "district",
              "districts": []
            },
            {
              "name": "延平區",
              "center": {
                "longitude": 118.182036,
                "latitude": 26.637438
              },
              "level": "district",
              "districts": []
            },
            {
              "name": "政和縣",
              "center": {
                "longitude": 118.857642,
                "latitude": 27.366104
              },
              "level": "district",
              "districts": []
            }
          ]
        },
        {
          "name": "寧德市",
          "center": {
            "longitude": 119.547932,
            "latitude": 26.665617
          },
          "level": "city",
          "districts": [
            {
              "name": "福鼎市",
              "center": {
                "longitude": 120.216977,
                "latitude": 27.324479
              },
              "level": "district",
              "districts": []
            },
            {
              "name": "福安市",
              "center": {
                "longitude": 119.64785,
                "latitude": 27.08834
              },
              "level": "district",
              "districts": []
            },
            {
              "name": "古田縣",
              "center": {
                "longitude": 118.746284,
                "latitude": 26.577837
              },
              "level": "district",
              "districts": []
            },
            {
              "name": "蕉城區",
              "center": {
                "longitude": 119.526299,
                "latitude": 26.66061
              },
              "level": "district",
              "districts": []
            },
            {
              "name": "屏南縣",
              "center": {
                "longitude": 118.985895,
                "latitude": 26.908276
              },
              "level": "district",
              "districts": []
            },
            {
              "name": "壽寧縣",
              "center": {
                "longitude": 119.514986,
                "latitude": 27.454479
              },
              "level": "district",
              "districts": []
            },
            {
              "name": "霞浦縣",
              "center": {
                "longitude": 120.005146,
                "latitude": 26.885703
              },
              "level": "district",
              "districts": []
            },
            {
              "name": "柘榮縣",
              "center": {
                "longitude": 119.900609,
                "latitude": 27.233933
              },
              "level": "district",
              "districts": []
            },
            {
              "name": "周寧縣",
              "center": {
                "longitude": 119.339025,
                "latitude": 27.104591
              },
              "level": "district",
              "districts": []
            }
          ]
        },
        {
          "name": "廈門市",
          "center": {
            "longitude": 118.089204,
            "latitude": 24.479664
          },
          "level": "city",
          "districts": [
            {
              "name": "海滄區",
              "center": {
                "longitude": 118.032984,
                "latitude": 24.484685
              },
              "level": "district",
              "districts": []
            },
            {
              "name": "湖裡區",
              "center": {
                "longitude": 118.146768,
                "latitude": 24.512904
              },
              "level": "district",
              "districts": []
            },
            {
              "name": "集美區",
              "center": {
                "longitude": 118.097337,
                "latitude": 24.575969
              },
              "level": "district",
              "districts": []
            },
            {
              "name": "思明區",
              "center": {
                "longitude": 118.082649,
                "latitude": 24.445484
              },
              "level": "district",
              "districts": []
            },
            {
              "name": "同安區",
              "center": {
                "longitude": 118.152041,
                "latitude": 24.723234
              },
              "level": "district",
              "districts": []
            },
            {
              "name": "翔安區",
              "center": {
                "longitude": 118.248034,
                "latitude": 24.618543
              },
              "level": "district",
              "districts": []
            }
          ]
        },
        {
          "name": "莆田市",
          "center": {
            "longitude": 119.007777,
            "latitude": 25.454084
          },
          "level": "city",
          "districts": [
            {
              "name": "城廂區",
              "center": {
                "longitude": 118.993884,
                "latitude": 25.419319
              },
              "level": "district",
              "districts": []
            },
            {
              "name": "涵江區",
              "center": {
                "longitude": 119.116289,
                "latitude": 25.45872
              },
              "level": "district",
              "districts": []
            },
            {
              "name": "荔城區",
              "center": {
                "longitude": 119.015061,
                "latitude": 25.431941
              },
              "level": "district",
              "districts": []
            },
            {
              "name": "仙遊縣",
              "center": {
                "longitude": 118.691637,
                "latitude": 25.362093
              },
              "level": "district",
              "districts": []
            },
            {
              "name": "秀嶼區",
              "center": {
                "longitude": 119.105494,
                "latitude": 25.31836
              },
              "level": "district",
              "districts": []
            }
          ]
        },
        {
          "name": "三明市",
          "center": {
            "longitude": 117.638678,
            "latitude": 26.263406
          },
          "level": "city",
          "districts": [
            {
              "name": "大田縣",
              "center": {
                "longitude": 117.847115,
                "latitude": 25.692699
              },
              "level": "district",
              "districts": []
            },
            {
              "name": "建寧縣",
              "center": {
                "longitude": 116.848443,
                "latitude": 26.833588
              },
              "level": "district",
              "districts": []
            },
            {
              "name": "將樂縣",
              "center": {
                "longitude": 117.471372,
                "latitude": 26.728952
              },
              "level": "district",
              "districts": []
            },
            {
              "name": "梅列區",
              "center": {
                "longitude": 117.645855,
                "latitude": 26.271711
              },
              "level": "district",
              "districts": []
            },
            {
              "name": "明溪縣",
              "center": {
                "longitude": 117.202226,
                "latitude": 26.355856
              },
              "level": "district",
              "districts": []
            },
            {
              "name": "寧化縣",
              "center": {
                "longitude": 116.654365,
                "latitude": 26.261754
              },
              "level": "district",
              "districts": []
            },
            {
              "name": "清流縣",
              "center": {
                "longitude": 116.816909,
                "latitude": 26.177796
              },
              "level": "district",
              "districts": []
            },
            {
              "name": "三元區",
              "center": {
                "longitude": 117.608044,
                "latitude": 26.234019
              },
              "level": "district",
              "districts": []
            },
            {
              "name": "沙縣",
              "center": {
                "longitude": 117.792396,
                "latitude": 26.397199
              },
              "level": "district",
              "districts": []
            },
            {
              "name": "泰寧縣",
              "center": {
                "longitude": 117.17574,
                "latitude": 26.900259
              },
              "level": "district",
              "districts": []
            },
            {
              "name": "永安市",
              "center": {
                "longitude": 117.365052,
                "latitude": 25.941937
              },
              "level": "district",
              "districts": []
            },
            {
              "name": "尤溪縣",
              "center": {
                "longitude": 118.190467,
                "latitude": 26.170171
              },
              "level": "district",
              "districts": []
            }
          ]
        },
        {
          "name": "泉州市",
          "center": {
            "longitude": 118.675676,
            "latitude": 24.874132
          },
          "level": "city",
          "districts": [
            {
              "name": "安溪縣",
              "center": {
                "longitude": 118.186288,
                "latitude": 25.055954
              },
              "level": "district",
              "districts": []
            },
            {
              "name": "德化縣",
              "center": {
                "longitude": 118.241094,
                "latitude": 25.491493
              },
              "level": "district",
              "districts": []
            },
            {
              "name": "豐澤區",
              "center": {
                "longitude": 118.613172,
                "latitude": 24.891173
              },
              "level": "district",
              "districts": []
            },
            {
              "name": "惠安縣",
              "center": {
                "longitude": 118.796607,
                "latitude": 25.030801
              },
              "level": "district",
              "districts": []
            },
            {
              "name": "金門縣",
              "center": {
                "longitude": 118.323221,
                "latitude": 24.436417
              },
              "level": "district",
              "districts": []
            },
            {
              "name": "晉江市",
              "center": {
                "longitude": 118.551682,
                "latitude": 24.781636
              },
              "level": "district",
              "districts": []
            },
            {
              "name": "鯉城區",
              "center": {
                "longitude": 118.587097,
                "latitude": 24.907424
              },
              "level": "district",
              "districts": []
            },
            {
              "name": "洛江區",
              "center": {
                "longitude": 118.671193,
                "latitude": 24.939796
              },
              "level": "district",
              "districts": []
            },
            {
              "name": "南安市",
              "center": {
                "longitude": 118.386279,
                "latitude": 24.960385
              },
              "level": "district",
              "districts": []
            },
            {
              "name": "泉港區",
              "center": {
                "longitude": 118.916309,
                "latitude": 25.119815
              },
              "level": "district",
              "districts": []
            },
            {
              "name": "石獅市",
              "center": {
                "longitude": 118.648066,
                "latitude": 24.732204
              },
              "level": "district",
              "districts": []
            },
            {
              "name": "永春縣",
              "center": {
                "longitude": 118.294048,
                "latitude": 25.321565
              },
              "level": "district",
              "districts": []
            }
          ]
        },
        {
          "name": "漳州市",
          "center": {
            "longitude": 117.647093,
            "latitude": 24.513025
          },
          "level": "city",
          "districts": [
            {
              "name": "東山縣",
              "center": {
                "longitude": 117.430061,
                "latitude": 23.701262
              },
              "level": "district",
              "districts": []
            },
            {
              "name": "華安縣",
              "center": {
                "longitude": 117.534103,
                "latitude": 25.004425
              },
              "level": "district",
              "districts": []
            },
            {
              "name": "龍海市",
              "center": {
                "longitude": 117.818197,
                "latitude": 24.446706
              },
              "level": "district",
              "districts": []
            },
            {
              "name": "龍文區",
              "center": {
                "longitude": 117.709754,
                "latitude": 24.503113
              },
              "level": "district",
              "districts": []
            },
            {
              "name": "南靖縣",
              "center": {
                "longitude": 117.35732,
                "latitude": 24.514654
              },
              "level": "district",
              "districts": []
            },
            {
              "name": "平和縣",
              "center": {
                "longitude": 117.315017,
                "latitude": 24.363508
              },
              "level": "district",
              "districts": []
            },
            {
              "name": "薌城區",
              "center": {
                "longitude": 117.653968,
                "latitude": 24.510787
              },
              "level": "district",
              "districts": []
            },
            {
              "name": "雲霄縣",
              "center": {
                "longitude": 117.339573,
                "latitude": 23.957936
              },
              "level": "district",
              "districts": []
            },
            {
              "name": "漳浦縣",
              "center": {
                "longitude": 117.613808,
                "latitude": 24.117102
              },
              "level": "district",
              "districts": []
            },
            {
              "name": "長泰縣",
              "center": {
                "longitude": 117.759153,
                "latitude": 24.625449
              },
              "level": "district",
              "districts": []
            },
            {
              "name": "詔安縣",
              "center": {
                "longitude": 117.175184,
                "latitude": 23.711579
              },
              "level": "district",
              "districts": []
            }
          ]
        }
      ]
    },
    {
      "name": "廣東省",
      "center": {
        "longitude": 113.26641,
        "latitude": 23.132324
      },
      "level": "province",
      "districts": [
        {
          "name": "中山市",
          "center": {
            "longitude": 113.39277,
            "latitude": 22.517585
          },
          "level": "city",
          "districts": [
            {
              "name": "南頭鎮",
              "center": {
                "longitude": 113.291867,
                "latitude": 22.717679
              },
              "level": "street",
              "districts": []
            },
            {
              "name": "小欖鎮",
              "center": {
                "longitude": 113.250897,
                "latitude": 22.672099
              },
              "level": "street",
              "districts": []
            },
            {
              "name": "神灣鎮",
              "center": {
                "longitude": 113.363816,
                "latitude": 22.302496
              },
              "level": "street",
              "districts": []
            },
            {
              "name": "東鳳鎮",
              "center": {
                "longitude": 113.256963,
                "latitude": 22.702452
              },
              "level": "street",
              "districts": []
            },
            {
              "name": "南朗鎮",
              "center": {
                "longitude": 113.530998,
                "latitude": 22.498612
              },
              "level": "street",
              "districts": []
            },
            {
              "name": "環城街道",
              "center": {
                "longitude": 113.352385,
                "latitude": 22.478059
              },
              "level": "street",
              "districts": []
            },
            {
              "name": "坦洲鎮",
              "center": {
                "longitude": 113.468002,
                "latitude": 22.254504
              },
              "level": "street",
              "districts": []
            },
            {
              "name": "中山港街道",
              "center": {
                "longitude": 113.47457,
                "latitude": 22.560023
              },
              "level": "street",
              "districts": []
            },
            {
              "name": "南區街道",
              "center": {
                "longitude": 113.354416,
                "latitude": 22.485429
              },
              "level": "street",
              "districts": []
            },
            {
              "name": "五桂山街道",
              "center": {
                "longitude": 113.402421,
                "latitude": 22.446247
              },
              "level": "street",
              "districts": []
            },
            {
              "name": "石歧區街道",
              "center": {
                "longitude": 113.372237,
                "latitude": 22.520661
              },
              "level": "street",
              "districts": []
            },
            {
              "name": "西區街道",
              "center": {
                "longitude": 113.358988,
                "latitude": 22.520088
              },
              "level": "street",
              "districts": []
            },
            {
              "name": "東區街道",
              "center": {
                "longitude": 113.398577,
                "latitude": 22.513701
              },
              "level": "street",
              "districts": []
            },
            {
              "name": "三鄉鎮",
              "center": {
                "longitude": 113.441608,
                "latitude": 22.357768
              },
              "level": "street",
              "districts": []
            },
            {
              "name": "大湧鎮",
              "center": {
                "longitude": 113.300876,
                "latitude": 22.46497
              },
              "level": "street",
              "districts": []
            },
            {
              "name": "黃圃鎮",
              "center": {
                "longitude": 113.33915,
                "latitude": 22.710864
              },
              "level": "street",
              "districts": []
            },
            {
              "name": "石岐區街道",
              "center": {
                "longitude": 113.388358,
                "latitude": 22.536656
              },
              "level": "street",
              "districts": []
            },
            {
              "name": "沙溪鎮",
              "center": {
                "longitude": 113.321321,
                "latitude": 22.508984
              },
              "level": "street",
              "districts": []
            },
            {
              "name": "東升鎮",
              "center": {
                "longitude": 113.291662,
                "latitude": 22.62273
              },
              "level": "street",
              "districts": []
            },
            {
              "name": "阜沙鎮",
              "center": {
                "longitude": 113.349872,
                "latitude": 22.667171
              },
              "level": "street",
              "districts": []
            },
            {
              "name": "民眾鎮",
              "center": {
                "longitude": 113.493839,
                "latitude": 22.621554
              },
              "level": "street",
              "districts": []
            },
            {
              "name": "橫欄鎮",
              "center": {
                "longitude": 113.249104,
                "latitude": 22.534847
              },
              "level": "street",
              "districts": []
            },
            {
              "name": "三角鎮",
              "center": {
                "longitude": 113.418173,
                "latitude": 22.67658
              },
              "level": "street",
              "districts": []
            },
            {
              "name": "板芙鎮",
              "center": {
                "longitude": 113.322644,
                "latitude": 22.416782
              },
              "level": "street",
              "districts": []
            },
            {
              "name": "港口鎮",
              "center": {
                "longitude": 113.385893,
                "latitude": 22.585266
              },
              "level": "street",
              "districts": []
            },
            {
              "name": "古鎮鎮",
              "center": {
                "longitude": 113.190869,
                "latitude": 22.613406
              },
              "level": "street",
              "districts": []
            }
          ]
        },
        {
          "name": "東沙群島",
          "center": {
            "longitude": 116.887613,
            "latitude": 20.617825
          },
          "level": "city",
          "districts": []
        },
        {
          "name": "潮州市",
          "center": {
            "longitude": 116.622444,
            "latitude": 23.657262
          },
          "level": "city",
          "districts": [
            {
              "name": "潮安區",
              "center": {
                "longitude": 116.678203,
                "latitude": 23.462613
              },
              "level": "district",
              "districts": []
            },
            {
              "name": "饒平縣",
              "center": {
                "longitude": 117.0039,
                "latitude": 23.663824
              },
              "level": "district",
              "districts": []
            },
            {
              "name": "湘橋區",
              "center": {
                "longitude": 116.628627,
                "latitude": 23.674387
              },
              "level": "district",
              "districts": []
            }
          ]
        },
        {
          "name": "東莞市",
          "center": {
            "longitude": 113.751799,
            "latitude": 23.020673
          },
          "level": "city",
          "districts": [
            {
              "name": "東坑鎮",
              "center": {
                "longitude": 113.933872,
                "latitude": 22.995838
              },
              "level": "street",
              "districts": []
            },
            {
              "name": "大嶺山鎮",
              "center": {
                "longitude": 113.842223,
                "latitude": 22.899965
              },
              "level": "street",
              "districts": []
            },
            {
              "name": "企石鎮",
              "center": {
                "longitude": 114.022023,
                "latitude": 23.072874
              },
              "level": "street",
              "districts": []
            },
            {
              "name": "沙田鎮",
              "center": {
                "longitude": 113.61818,
                "latitude": 22.919615
              },
              "level": "street",
              "districts": []
            },
            {
              "name": "道滘鎮",
              "center": {
                "longitude": 113.675231,
                "latitude": 23.004366
              },
              "level": "street",
              "districts": []
            },
            {
              "name": "虎門鎮",
              "center": {
                "longitude": 113.672553,
                "latitude": 22.814835
              },
              "level": "street",
              "districts": []
            },
            {
              "name": "望牛墩鎮",
              "center": {
                "longitude": 113.656231,
                "latitude": 23.055334
              },
              "level": "street",
              "districts": []
            },
            {
              "name": "南城街道",
              "center": {
                "longitude": 113.743835,
                "latitude": 23.018534
              },
              "level": "street",
              "districts": []
            },
            {
              "name": "莞城街道",
              "center": {
                "longitude": 113.749234,
                "latitude": 23.038629
              },
              "level": "street",
              "districts": []
            },
            {
              "name": "東城街道",
              "center": {
                "longitude": 113.783327,
                "latitude": 23.028053
              },
              "level": "street",
              "districts": []
            },
            {
              "name": "萬江街道",
              "center": {
                "longitude": 113.738542,
                "latitude": 23.047104
              },
              "level": "street",
              "districts": []
            },
            {
              "name": "石排鎮",
              "center": {
                "longitude": 113.9403,
                "latitude": 23.090292
              },
              "level": "street",
              "districts": []
            },
            {
              "name": "厚街鎮",
              "center": {
                "longitude": 113.67114,
                "latitude": 22.936585
              },
              "level": "street",
              "districts": []
            },
            {
              "name": "長安鎮",
              "center": {
                "longitude": 113.802516,
                "latitude": 22.814768
              },
              "level": "street",
              "districts": []
            },
            {
              "name": "石碣鎮",
              "center": {
                "longitude": 113.813068,
                "latitude": 23.099651
              },
              "level": "street",
              "districts": []
            },
            {
              "name": "大朗鎮",
              "center": {
                "longitude": 113.943978,
                "latitude": 22.940016
              },
              "level": "street",
              "districts": []
            },
            {
              "name": "橫瀝鎮",
              "center": {
                "longitude": 113.965588,
                "latitude": 23.018472
              },
              "level": "street",
              "districts": []
            },
            {
              "name": "樟木頭鎮",
              "center": {
                "longitude": 114.083278,
                "latitude": 22.914909
              },
              "level": "street",
              "districts": []
            },
            {
              "name": "清溪鎮",
              "center": {
                "longitude": 114.164185,
                "latitude": 22.843847
              },
              "level": "street",
              "districts": []
            },
            {
              "name": "麻湧鎮",
              "center": {
                "longitude": 113.581134,
                "latitude": 23.051137
              },
              "level": "street",
              "districts": []
            },
            {
              "name": "茶山鎮",
              "center": {
                "longitude": 113.869636,
                "latitude": 23.076755
              },
              "level": "street",
              "districts": []
            },
            {
              "name": "鳳崗鎮",
              "center": {
                "longitude": 114.136944,
                "latitude": 22.74695
              },
              "level": "street",
              "districts": []
            },
            {
              "name": "高埗鎮",
              "center": {
                "longitude": 113.745951,
                "latitude": 23.090824
              },
              "level": "street",
              "districts": []
            },
            {
              "name": "中堂鎮",
              "center": {
                "longitude": 113.656917,
                "latitude": 23.092609
              },
              "level": "street",
              "districts": []
            },
            {
              "name": "橋頭鎮",
              "center": {
                "longitude": 114.10316,
                "latitude": 23.024132
              },
              "level": "street",
              "districts": []
            },
            {
              "name": "謝崗鎮",
              "center": {
                "longitude": 114.148739,
                "latitude": 22.961616
              },
              "level": "street",
              "districts": []
            },
            {
              "name": "黃江鎮",
              "center": {
                "longitude": 114.003561,
                "latitude": 22.915278
              },
              "level": "street",
              "districts": []
            },
            {
              "name": "塘廈鎮",
              "center": {
                "longitude": 114.072575,
                "latitude": 22.806965
              },
              "level": "street",
              "districts": []
            },
            {
              "name": "寮步鎮",
              "center": {
                "longitude": 113.874871,
                "latitude": 22.997358
              },
              "level": "street",
              "districts": []
            },
            {
              "name": "洪梅鎮",
              "center": {
                "longitude": 113.608903,
                "latitude": 22.994717
              },
              "level": "street",
              "districts": []
            },
            {
              "name": "常平鎮",
              "center": {
                "longitude": 113.993116,
                "latitude": 22.974855
              },
              "level": "street",
              "districts": []
            },
            {
              "name": "石龍鎮",
              "center": {
                "longitude": 113.874378,
                "latitude": 23.10591
              },
              "level": "street",
              "districts": []
            }
          ]
        },
        {
          "name": "佛山市",
          "center": {
            "longitude": 113.121435,
            "latitude": 23.021478
          },
          "level": "city",
          "districts": [
            {
              "name": "禪城區",
              "center": {
                "longitude": 113.122421,
                "latitude": 23.009551
              },
              "level": "district",
              "districts": []
            },
            {
              "name": "高明區",
              "center": {
                "longitude": 112.892585,
                "latitude": 22.900139
              },
              "level": "district",
              "districts": []
            },
            {
              "name": "南海區",
              "center": {
                "longitude": 113.143441,
                "latitude": 23.028956
              },
              "level": "district",
              "districts": []
            },
            {
              "name": "三水區",
              "center": {
                "longitude": 112.896685,
                "latitude": 23.155931
              },
              "level": "district",
              "districts": []
            },
            {
              "name": "順德區",
              "center": {
                "longitude": 113.293359,
                "latitude": 22.80524
              },
              "level": "district",
              "districts": []
            }
          ]
        },
        {
          "name": "廣州市",
          "center": {
            "longitude": 113.264385,
            "latitude": 23.12911
          },
          "level": "city",
          "districts": [
            {
              "name": "白雲區",
              "center": {
                "longitude": 113.273238,
                "latitude": 23.157367
              },
              "level": "district",
              "districts": []
            },
            {
              "name": "從化區",
              "center": {
                "longitude": 113.586679,
                "latitude": 23.548748
              },
              "level": "district",
              "districts": []
            },
            {
              "name": "番禺區",
              "center": {
                "longitude": 113.384152,
                "latitude": 22.937556
              },
              "level": "district",
              "districts": []
            },
            {
              "name": "海珠區",
              "center": {
                "longitude": 113.317443,
                "latitude": 23.083788
              },
              "level": "district",
              "districts": []
            },
            {
              "name": "花都區",
              "center": {
                "longitude": 113.220463,
                "latitude": 23.403744
              },
              "level": "district",
              "districts": []
            },
            {
              "name": "黃埔區",
              "center": {
                "longitude": 113.480541,
                "latitude": 23.181706
              },
              "level": "district",
              "districts": []
            },
            {
              "name": "荔灣區",
              "center": {
                "longitude": 113.244258,
                "latitude": 23.125863
              },
              "level": "district",
              "districts": []
            },
            {
              "name": "南沙區",
              "center": {
                "longitude": 113.525165,
                "latitude": 22.801624
              },
              "level": "district",
              "districts": []
            },
            {
              "name": "天河區",
              "center": {
                "longitude": 113.361575,
                "latitude": 23.124807
              },
              "level": "district",
              "districts": []
            },
            {
              "name": "越秀區",
              "center": {
                "longitude": 113.266835,
                "latitude": 23.128537
              },
              "level": "district",
              "districts": []
            },
            {
              "name": "增城區",
              "center": {
                "longitude": 113.810627,
                "latitude": 23.261465
              },
              "level": "district",
              "districts": []
            }
          ]
        },
        {
          "name": "河源市",
          "center": {
            "longitude": 114.700961,
            "latitude": 23.743686
          },
          "level": "city",
          "districts": [
            {
              "name": "東源縣",
              "center": {
                "longitude": 114.746344,
                "latitude": 23.788189
              },
              "level": "district",
              "districts": []
            },
            {
              "name": "和平縣",
              "center": {
                "longitude": 114.938684,
                "latitude": 24.44218
              },
              "level": "district",
              "districts": []
            },
            {
              "name": "連平縣",
              "center": {
                "longitude": 114.488556,
                "latitude": 24.369583
              },
              "level": "district",
              "districts": []
            },
            {
              "name": "龍川縣",
              "center": {
                "longitude": 115.259871,
                "latitude": 24.100066
              },
              "level": "district",
              "districts": []
            },
            {
              "name": "源城區",
              "center": {
                "longitude": 114.702517,
                "latitude": 23.733969
              },
              "level": "district",
              "districts": []
            },
            {
              "name": "紫金縣",
              "center": {
                "longitude": 115.184107,
                "latitude": 23.635745
              },
              "level": "district",
              "districts": []
            }
          ]
        },
        {
          "name": "惠州市",
          "center": {
            "longitude": 114.415612,
            "latitude": 23.112381
          },
          "level": "city",
          "districts": [
            {
              "name": "博羅縣",
              "center": {
                "longitude": 114.289528,
                "latitude": 23.172771
              },
              "level": "district",
              "districts": []
            },
            {
              "name": "惠城區",
              "center": {
                "longitude": 114.382474,
                "latitude": 23.084137
              },
              "level": "district",
              "districts": []
            },
            {
              "name": "惠東縣",
              "center": {
                "longitude": 114.719988,
                "latitude": 22.985014
              },
              "level": "district",
              "districts": []
            },
            {
              "name": "惠陽區",
              "center": {
                "longitude": 114.456176,
                "latitude": 22.789788
              },
              "level": "district",
              "districts": []
            },
            {
              "name": "龍門縣",
              "center": {
                "longitude": 114.254863,
                "latitude": 23.727737
              },
              "level": "district",
              "districts": []
            }
          ]
        },
        {
          "name": "江門市",
          "center": {
            "longitude": 113.081542,
            "latitude": 22.57899
          },
          "level": "city",
          "districts": [
            {
              "name": "恩平市",
              "center": {
                "longitude": 112.305145,
                "latitude": 22.183206
              },
              "level": "district",
              "districts": []
            },
            {
              "name": "鶴山市",
              "center": {
                "longitude": 112.964252,
                "latitude": 22.76545
              },
              "level": "district",
              "districts": []
            },
            {
              "name": "江海區",
              "center": {
                "longitude": 113.111612,
                "latitude": 22.560473
              },
              "level": "district",
              "districts": []
            },
            {
              "name": "開平市",
              "center": {
                "longitude": 112.698545,
                "latitude": 22.376395
              },
              "level": "district",
              "districts": []
            },
            {
              "name": "蓬江區",
              "center": {
                "longitude": 113.078521,
                "latitude": 22.595149
              },
              "level": "district",
              "districts": []
            },
            {
              "name": "臺山市",
              "center": {
                "longitude": 112.794065,
                "latitude": 22.251924
              },
              "level": "district",
              "districts": []
            },
            {
              "name": "新會區",
              "center": {
                "longitude": 113.034187,
                "latitude": 22.4583
              },
              "level": "district",
              "districts": []
            }
          ]
        },
        {
          "name": "揭陽市",
          "center": {
            "longitude": 116.372708,
            "latitude": 23.549701
          },
          "level": "city",
          "districts": [
            {
              "name": "惠來縣",
              "center": {
                "longitude": 116.29515,
                "latitude": 23.033266
              },
              "level": "district",
              "districts": []
            },
            {
              "name": "揭東區",
              "center": {
                "longitude": 116.412015,
                "latitude": 23.566126
              },
              "level": "district",
              "districts": []
            },
            {
              "name": "揭西縣",
              "center": {
                "longitude": 115.841837,
                "latitude": 23.431294
              },
              "level": "district",
              "districts": []
            },
            {
              "name": "普寧市",
              "center": {
                "longitude": 116.165777,
                "latitude": 23.297493
              },
              "level": "district",
              "districts": []
            },
            {
              "name": "榕城區",
              "center": {
                "longitude": 116.367012,
                "latitude": 23.525382
              },
              "level": "district",
              "districts": []
            }
          ]
        },
        {
          "name": "茂名市",
          "center": {
            "longitude": 110.925439,
            "latitude": 21.662991
          },
          "level": "city",
          "districts": [
            {
              "name": "電白區",
              "center": {
                "longitude": 111.013556,
                "latitude": 21.514163
              },
              "level": "district",
              "districts": []
            },
            {
              "name": "高州市",
              "center": {
                "longitude": 110.853299,
                "latitude": 21.918203
              },
              "level": "district",
              "districts": []
            },
            {
              "name": "化州市",
              "center": {
                "longitude": 110.639565,
                "latitude": 21.66463
              },
              "level": "district",
              "districts": []
            },
            {
              "name": "茂南區",
              "center": {
                "longitude": 110.918026,
                "latitude": 21.641337
              },
              "level": "district",
              "districts": []
            },
            {
              "name": "信宜市",
              "center": {
                "longitude": 110.947043,
                "latitude": 22.354385
              },
              "level": "district",
              "districts": []
            }
          ]
        },
        {
          "name": "梅州市",
          "center": {
            "longitude": 116.122523,
            "latitude": 24.288578
          },
          "level": "city",
          "districts": [
            {
              "name": "大埔縣",
              "center": {
                "longitude": 116.695195,
                "latitude": 24.347782
              },
              "level": "district",
              "districts": []
            },
            {
              "name": "豐順縣",
              "center": {
                "longitude": 116.181691,
                "latitude": 23.739343
              },
              "level": "district",
              "districts": []
            },
            {
              "name": "蕉嶺縣",
              "center": {
                "longitude": 116.171355,
                "latitude": 24.658699
              },
              "level": "district",
              "districts": []
            },
            {
              "name": "梅江區",
              "center": {
                "longitude": 116.116695,
                "latitude": 24.31049
              },
              "level": "district",
              "districts": []
            },
            {
              "name": "梅縣區",
              "center": {
                "longitude": 116.081656,
                "latitude": 24.265926
              },
              "level": "district",
              "districts": []
            },
            {
              "name": "平遠縣",
              "center": {
                "longitude": 115.891638,
                "latitude": 24.567261
              },
              "level": "district",
              "districts": []
            },
            {
              "name": "五華縣",
              "center": {
                "longitude": 115.775788,
                "latitude": 23.932409
              },
              "level": "district",
              "districts": []
            },
            {
              "name": "興寧市",
              "center": {
                "longitude": 115.731167,
                "latitude": 24.136708
              },
              "level": "district",
              "districts": []
            }
          ]
        },
        {
          "name": "清遠市",
          "center": {
            "longitude": 113.056042,
            "latitude": 23.681774
          },
          "level": "city",
          "districts": [
            {
              "name": "佛岡縣",
              "center": {
                "longitude": 113.531607,
                "latitude": 23.879192
              },
              "level": "district",
              "districts": []
            },
            {
              "name": "連州市",
              "center": {
                "longitude": 112.377361,
                "latitude": 24.780966
              },
              "level": "district",
              "districts": []
            },
            {
              "name": "連南瑤族自治縣",
              "center": {
                "longitude": 112.287012,
                "latitude": 24.726017
              },
              "level": "district",
              "districts": []
            },
            {
              "name": "連山壯族瑤族自治縣",
              "center": {
                "longitude": 112.093617,
                "latitude": 24.570491
              },
              "level": "district",
              "districts": []
            },
            {
              "name": "清新區",
              "center": {
                "longitude": 113.017747,
                "latitude": 23.734677
              },
              "level": "district",
              "districts": []
            },
            {
              "name": "清城區",
              "center": {
                "longitude": 113.062692,
                "latitude": 23.697899
              },
              "level": "district",
              "districts": []
            },
            {
              "name": "陽山縣",
              "center": {
                "longitude": 112.641363,
                "latitude": 24.465359
              },
              "level": "district",
              "districts": []
            },
            {
              "name": "英德市",
              "center": {
                "longitude": 113.401701,
                "latitude": 24.206986
              },
              "level": "district",
              "districts": []
            }
          ]
        },
        {
          "name": "汕頭市",
          "center": {
            "longitude": 116.681972,
            "latitude": 23.354091
          },
          "level": "city",
          "districts": [
            {
              "name": "潮南區",
              "center": {
                "longitude": 116.439178,
                "latitude": 23.23865
              },
              "level": "district",
              "districts": []
            },
            {
              "name": "澄海區",
              "center": {
                "longitude": 116.755992,
                "latitude": 23.466709
              },
              "level": "district",
              "districts": []
            },
            {
              "name": "潮陽區",
              "center": {
                "longitude": 116.601509,
                "latitude": 23.265356
              },
              "level": "district",
              "districts": []
            },
            {
              "name": "濠江區",
              "center": {
                "longitude": 116.726973,
                "latitude": 23.286079
              },
              "level": "district",
              "districts": []
            },
            {
              "name": "金平區",
              "center": {
                "longitude": 116.70345,
                "latitude": 23.365556
              },
              "level": "district",
              "districts": []
            },
            {
              "name": "龍湖區",
              "center": {
                "longitude": 116.716446,
                "latitude": 23.372254
              },
              "level": "district",
              "districts": []
            },
            {
              "name": "南澳縣",
              "center": {
                "longitude": 117.023374,
                "latitude": 23.421724
              },
              "level": "district",
              "districts": []
            }
          ]
        },
        {
          "name": "汕尾市",
          "center": {
            "longitude": 115.375431,
            "latitude": 22.78705
          },
          "level": "city",
          "districts": [
            {
              "name": "城區",
              "center": {
                "longitude": 115.365058,
                "latitude": 22.779207
              },
              "level": "district",
              "districts": []
            },
            {
              "name": "海豐縣",
              "center": {
                "longitude": 115.323436,
                "latitude": 22.966585
              },
              "level": "district",
              "districts": []
            },
            {
              "name": "陸豐市",
              "center": {
                "longitude": 115.652151,
                "latitude": 22.919228
              },
              "level": "district",
              "districts": []
            },
            {
              "name": "陸河縣",
              "center": {
                "longitude": 115.660143,
                "latitude": 23.301616
              },
              "level": "district",
              "districts": []
            }
          ]
        },
        {
          "name": "韶關市",
          "center": {
            "longitude": 113.59762,
            "latitude": 24.810879
          },
          "level": "city",
          "districts": [
            {
              "name": "樂昌市",
              "center": {
                "longitude": 113.347545,
                "latitude": 25.130602
              },
              "level": "district",
              "districts": []
            },
            {
              "name": "南雄市",
              "center": {
                "longitude": 114.311982,
                "latitude": 25.117753
              },
              "level": "district",
              "districts": []
            },
            {
              "name": "曲江區",
              "center": {
                "longitude": 113.604535,
                "latitude": 24.682501
              },
              "level": "district",
              "districts": []
            },
            {
              "name": "仁化縣",
              "center": {
                "longitude": 113.749027,
                "latitude": 25.085621
              },
              "level": "district",
              "districts": []
            },
            {
              "name": "乳源瑤族自治縣",
              "center": {
                "longitude": 113.275883,
                "latitude": 24.776078
              },
              "level": "district",
              "districts": []
            },
            {
              "name": "始興縣",
              "center": {
                "longitude": 114.061789,
                "latitude": 24.952976
              },
              "level": "district",
              "districts": []
            },
            {
              "name": "翁源縣",
              "center": {
                "longitude": 114.130342,
                "latitude": 24.350346
              },
              "level": "district",
              "districts": []
            },
            {
              "name": "武江區",
              "center": {
                "longitude": 113.587756,
                "latitude": 24.792926
              },
              "level": "district",
              "districts": []
            },
            {
              "name": "新豐縣",
              "center": {
                "longitude": 114.206867,
                "latitude": 24.05976
              },
              "level": "district",
              "districts": []
            },
            {
              "name": "湞江區",
              "center": {
                "longitude": 113.611098,
                "latitude": 24.804381
              },
              "level": "district",
              "districts": []
            }
          ]
        },
        {
          "name": "深圳市",
          "center": {
            "longitude": 114.057939,
            "latitude": 22.543527
          },
          "level": "city",
          "districts": [
            {
              "name": "寶安區",
              "center": {
                "longitude": 113.883802,
                "latitude": 22.554996
              },
              "level": "district",
              "districts": []
            },
            {
              "name": "福田區",
              "center": {
                "longitude": 114.055072,
                "latitude": 22.521521
              },
              "level": "district",
              "districts": []
            },
            {
              "name": "龍崗區",
              "center": {
                "longitude": 114.246899,
                "latitude": 22.720974
              },
              "level": "district",
              "districts": []
            },
            {
              "name": "龍華區",
              "center": {
                "longitude": 114.045422,
                "latitude": 22.696667
              },
              "level": "district",
              "districts": []
            },
            {
              "name": "羅湖區",
              "center": {
                "longitude": 114.131459,
                "latitude": 22.548389
              },
              "level": "district",
              "districts": []
            },
            {
              "name": "南山區",
              "center": {
                "longitude": 113.930413,
                "latitude": 22.533287
              },
              "level": "district",
              "districts": []
            },
            {
              "name": "坪山區",
              "center": {
                "longitude": 114.350584,
                "latitude": 22.708881
              },
              "level": "district",
              "districts": []
            },
            {
              "name": "鹽田區",
              "center": {
                "longitude": 114.236739,
                "latitude": 22.557001
              },
              "level": "district",
              "districts": []
            }
          ]
        },
        {
          "name": "陽江市",
          "center": {
            "longitude": 111.982589,
            "latitude": 21.857887
          },
          "level": "city",
          "districts": [
            {
              "name": "江城區",
              "center": {
                "longitude": 111.955058,
                "latitude": 21.861786
              },
              "level": "district",
              "districts": []
            },
            {
              "name": "陽西縣",
              "center": {
                "longitude": 111.61766,
                "latitude": 21.752771
              },
              "level": "district",
              "districts": []
            },
            {
              "name": "陽東區",
              "center": {
                "longitude": 112.006363,
                "latitude": 21.868337
              },
              "level": "district",
              "districts": []
            },
            {
              "name": "陽春市",
              "center": {
                "longitude": 111.791587,
                "latitude": 22.17041
              },
              "level": "district",
              "districts": []
            }
          ]
        },
        {
          "name": "雲浮市",
          "center": {
            "longitude": 112.044491,
            "latitude": 22.915094
          },
          "level": "city",
          "districts": [
            {
              "name": "羅定市",
              "center": {
                "longitude": 111.569892,
                "latitude": 22.768285
              },
              "level": "district",
              "districts": []
            },
            {
              "name": "新興縣",
              "center": {
                "longitude": 112.225334,
                "latitude": 22.69569
              },
              "level": "district",
              "districts": []
            },
            {
              "name": "雲安區",
              "center": {
                "longitude": 112.003208,
                "latitude": 23.071019
              },
              "level": "district",
              "districts": []
            },
            {
              "name": "郁南縣",
              "center": {
                "longitude": 111.535285,
                "latitude": 23.23456
              },
              "level": "district",
              "districts": []
            },
            {
              "name": "雲城區",
              "center": {
                "longitude": 112.043945,
                "latitude": 22.92815
              },
              "level": "district",
              "districts": []
            }
          ]
        },
        {
          "name": "湛江市",
          "center": {
            "longitude": 110.356639,
            "latitude": 21.270145
          },
          "level": "city",
          "districts": [
            {
              "name": "赤坎區",
              "center": {
                "longitude": 110.365899,
                "latitude": 21.266119
              },
              "level": "district",
              "districts": []
            },
            {
              "name": "雷州市",
              "center": {
                "longitude": 110.096586,
                "latitude": 20.914178
              },
              "level": "district",
              "districts": []
            },
            {
              "name": "廉江市",
              "center": {
                "longitude": 110.286208,
                "latitude": 21.6097
              },
              "level": "district",
              "districts": []
            },
            {
              "name": "麻章區",
              "center": {
                "longitude": 110.334387,
                "latitude": 21.263442
              },
              "level": "district",
              "districts": []
            },
            {
              "name": "坡頭區",
              "center": {
                "longitude": 110.455332,
                "latitude": 21.244721
              },
              "level": "district",
              "districts": []
            },
            {
              "name": "遂溪縣",
              "center": {
                "longitude": 110.250123,
                "latitude": 21.377246
              },
              "level": "district",
              "districts": []
            },
            {
              "name": "吳川市",
              "center": {
                "longitude": 110.778411,
                "latitude": 21.441808
              },
              "level": "district",
              "districts": []
            },
            {
              "name": "霞山區",
              "center": {
                "longitude": 110.397656,
                "latitude": 21.192457
              },
              "level": "district",
              "districts": []
            },
            {
              "name": "徐聞縣",
              "center": {
                "longitude": 110.176749,
                "latitude": 20.325489
              },
              "level": "district",
              "districts": []
            }
          ]
        },
        {
          "name": "肇慶市",
          "center": {
            "longitude": 112.465091,
            "latitude": 23.047191
          },
          "level": "city",
          "districts": [
            {
              "name": "德慶縣",
              "center": {
                "longitude": 111.785937,
                "latitude": 23.143722
              },
              "level": "district",
              "districts": []
            },
            {
              "name": "鼎湖區",
              "center": {
                "longitude": 112.567588,
                "latitude": 23.158447
              },
              "level": "district",
              "districts": []
            },
            {
              "name": "端州區",
              "center": {
                "longitude": 112.484848,
                "latitude": 23.052101
              },
              "level": "district",
              "districts": []
            },
            {
              "name": "封開縣",
              "center": {
                "longitude": 111.512343,
                "latitude": 23.424033
              },
              "level": "district",
              "districts": []
            },
            {
              "name": "高要區",
              "center": {
                "longitude": 112.457981,
                "latitude": 23.025305
              },
              "level": "district",
              "districts": []
            },
            {
              "name": "廣寧縣",
              "center": {
                "longitude": 112.44069,
                "latitude": 23.634675
              },
              "level": "district",
              "districts": []
            },
            {
              "name": "懷集縣",
              "center": {
                "longitude": 112.167742,
                "latitude": 23.92035
              },
              "level": "district",
              "districts": []
            },
            {
              "name": "四會市",
              "center": {
                "longitude": 112.734103,
                "latitude": 23.327001
              },
              "level": "district",
              "districts": []
            }
          ]
        },
        {
          "name": "珠海市",
          "center": {
            "longitude": 113.576677,
            "latitude": 22.270978
          },
          "level": "city",
          "districts": [
            {
              "name": "斗門區",
              "center": {
                "longitude": 113.296467,
                "latitude": 22.2092
              },
              "level": "district",
              "districts": []
            },
            {
              "name": "金灣區",
              "center": {
                "longitude": 113.362656,
                "latitude": 22.147471
              },
              "level": "district",
              "districts": []
            },
            {
              "name": "香洲區",
              "center": {
                "longitude": 113.543784,
                "latitude": 22.265811
              },
              "level": "district",
              "districts": []
            }
          ]
        }
      ]
    },
    {
      "name": "廣西壯族自治區",
      "center": {
        "longitude": 108.327546,
        "latitude": 22.815478
      },
      "level": "province",
      "districts": [
        {
          "name": "北海市",
          "center": {
            "longitude": 109.120161,
            "latitude": 21.481291
          },
          "level": "city",
          "districts": [
            {
              "name": "海城區",
              "center": {
                "longitude": 109.117209,
                "latitude": 21.475004
              },
              "level": "district",
              "districts": []
            },
            {
              "name": "合浦縣",
              "center": {
                "longitude": 109.207335,
                "latitude": 21.660935
              },
              "level": "district",
              "districts": []
            },
            {
              "name": "鐵山港區",
              "center": {
                "longitude": 109.42158,
                "latitude": 21.529127
              },
              "level": "district",
              "districts": []
            },
            {
              "name": "銀海區",
              "center": {
                "longitude": 109.139862,
                "latitude": 21.449308
              },
              "level": "district",
              "districts": []
            }
          ]
        },
        {
          "name": "百色市",
          "center": {
            "longitude": 106.618202,
            "latitude": 23.90233
          },
          "level": "city",
          "districts": [
            {
              "name": "德保縣",
              "center": {
                "longitude": 106.615373,
                "latitude": 23.32345
              },
              "level": "district",
              "districts": []
            },
            {
              "name": "靖西市",
              "center": {
                "longitude": 106.417805,
                "latitude": 23.134117
              },
              "level": "district",
              "districts": []
            },
            {
              "name": "樂業縣",
              "center": {
                "longitude": 106.556519,
                "latitude": 24.776827
              },
              "level": "district",
              "districts": []
            },
            {
              "name": "淩雲縣",
              "center": {
                "longitude": 106.56131,
                "latitude": 24.347557
              },
              "level": "district",
              "districts": []
            },
            {
              "name": "隆林各族自治縣",
              "center": {
                "longitude": 105.34404,
                "latitude": 24.770896
              },
              "level": "district",
              "districts": []
            },
            {
              "name": "那坡縣",
              "center": {
                "longitude": 105.83253,
                "latitude": 23.387441
              },
              "level": "district",
              "districts": []
            },
            {
              "name": "平果縣",
              "center": {
                "longitude": 107.589809,
                "latitude": 23.329376
              },
              "level": "district",
              "districts": []
            },
            {
              "name": "田林縣",
              "center": {
                "longitude": 106.228538,
                "latitude": 24.294487
              },
              "level": "district",
              "districts": []
            },
            {
              "name": "田東縣",
              "center": {
                "longitude": 107.12608,
                "latitude": 23.597194
              },
              "level": "district",
              "districts": []
            },
            {
              "name": "田陽縣",
              "center": {
                "longitude": 106.915496,
                "latitude": 23.735692
              },
              "level": "district",
              "districts": []
            },
            {
              "name": "西林縣",
              "center": {
                "longitude": 105.093825,
                "latitude": 24.489823
              },
              "level": "district",
              "districts": []
            },
            {
              "name": "右江區",
              "center": {
                "longitude": 106.618225,
                "latitude": 23.90097
              },
              "level": "district",
              "districts": []
            }
          ]
        },
        {
          "name": "崇左市",
          "center": {
            "longitude": 107.365094,
            "latitude": 22.377253
          },
          "level": "city",
          "districts": [
            {
              "name": "大新縣",
              "center": {
                "longitude": 107.200654,
                "latitude": 22.829287
              },
              "level": "district",
              "districts": []
            },
            {
              "name": "扶綏縣",
              "center": {
                "longitude": 107.904186,
                "latitude": 22.635012
              },
              "level": "district",
              "districts": []
            },
            {
              "name": "江州區",
              "center": {
                "longitude": 107.353437,
                "latitude": 22.405325
              },
              "level": "district",
              "districts": []
            },
            {
              "name": "龍州縣",
              "center": {
                "longitude": 106.854482,
                "latitude": 22.342778
              },
              "level": "district",
              "districts": []
            },
            {
              "name": "寧明縣",
              "center": {
                "longitude": 107.076456,
                "latitude": 22.140192
              },
              "level": "district",
              "districts": []
            },
            {
              "name": "憑祥市",
              "center": {
                "longitude": 106.766293,
                "latitude": 22.094484
              },
              "level": "district",
              "districts": []
            },
            {
              "name": "天等縣",
              "center": {
                "longitude": 107.143432,
                "latitude": 23.081394
              },
              "level": "district",
              "districts": []
            }
          ]
        },
        {
          "name": "防城港市",
          "center": {
            "longitude": 108.353846,
            "latitude": 21.68686
          },
          "level": "city",
          "districts": [
            {
              "name": "東興市",
              "center": {
                "longitude": 107.971828,
                "latitude": 21.547821
              },
              "level": "district",
              "districts": []
            },
            {
              "name": "防城區",
              "center": {
                "longitude": 108.353499,
                "latitude": 21.769211
              },
              "level": "district",
              "districts": []
            },
            {
              "name": "港口區",
              "center": {
                "longitude": 108.380143,
                "latitude": 21.643383
              },
              "level": "district",
              "districts": []
            },
            {
              "name": "上思縣",
              "center": {
                "longitude": 107.983627,
                "latitude": 22.153671
              },
              "level": "district",
              "districts": []
            }
          ]
        },
        {
          "name": "桂林市",
          "center": {
            "longitude": 110.179953,
            "latitude": 25.234479
          },
          "level": "city",
          "districts": [
            {
              "name": "疊彩區",
              "center": {
                "longitude": 110.301723,
                "latitude": 25.314
              },
              "level": "district",
              "districts": []
            },
            {
              "name": "灌陽縣",
              "center": {
                "longitude": 111.160851,
                "latitude": 25.489383
              },
              "level": "district",
              "districts": []
            },
            {
              "name": "恭城瑤族自治縣",
              "center": {
                "longitude": 110.828409,
                "latitude": 24.831682
              },
              "level": "district",
              "districts": []
            },
            {
              "name": "荔浦縣",
              "center": {
                "longitude": 110.395104,
                "latitude": 24.488342
              },
              "level": "district",
              "districts": []
            },
            {
              "name": "臨桂區",
              "center": {
                "longitude": 110.212463,
                "latitude": 25.238628
              },
              "level": "district",
              "districts": []
            },
            {
              "name": "靈川縣",
              "center": {
                "longitude": 110.319897,
                "latitude": 25.394781
              },
              "level": "district",
              "districts": []
            },
            {
              "name": "龍勝各族自治縣",
              "center": {
                "longitude": 110.011238,
                "latitude": 25.797931
              },
              "level": "district",
              "districts": []
            },
            {
              "name": "平樂縣",
              "center": {
                "longitude": 110.643305,
                "latitude": 24.633362
              },
              "level": "district",
              "districts": []
            },
            {
              "name": "七星區",
              "center": {
                "longitude": 110.317826,
                "latitude": 25.252701
              },
              "level": "district",
              "districts": []
            },
            {
              "name": "全州縣",
              "center": {
                "longitude": 111.072946,
                "latitude": 25.928387
              },
              "level": "district",
              "districts": []
            },
            {
              "name": "象山區",
              "center": {
                "longitude": 110.281082,
                "latitude": 25.261686
              },
              "level": "district",
              "districts": []
            },
            {
              "name": "興安縣",
              "center": {
                "longitude": 110.67167,
                "latitude": 25.611704
              },
              "level": "district",
              "districts": []
            },
            {
              "name": "秀峰區",
              "center": {
                "longitude": 110.264183,
                "latitude": 25.273625
              },
              "level": "district",
              "districts": []
            },
            {
              "name": "陽朔縣",
              "center": {
                "longitude": 110.496593,
                "latitude": 24.77848
              },
              "level": "district",
              "districts": []
            },
            {
              "name": "雁山區",
              "center": {
                "longitude": 110.28669,
                "latitude": 25.101934
              },
              "level": "district",
              "districts": []
            },
            {
              "name": "永福縣",
              "center": {
                "longitude": 109.983076,
                "latitude": 24.979855
              },
              "level": "district",
              "districts": []
            },
            {
              "name": "資源縣",
              "center": {
                "longitude": 110.6527,
                "latitude": 26.042443
              },
              "level": "district",
              "districts": []
            }
          ]
        },
        {
          "name": "貴港市",
          "center": {
            "longitude": 109.598926,
            "latitude": 23.11153
          },